City_ID,City,Lat,Lng,Max Temp,Humidity,Cloudiness,Wind Speed,Country,Date
0,invercargill,-46.4,168.35,17.79,70,62,2.68,NZ,1712031457
1,nuuk,64.1835,-51.7216,-1.66,86,52,5.14,GL,1712031230
2,mahibadhoo,3.7833,72.9667,28.97,68,91,1.91,MV,1712031459
3,zheleznodorozhnyy,55.7503,38.0042,11.87,75,33,4.02,RU,1712031459
4,coyhaique,-45.5752,-72.0662,7.34,87,0,2.06,CL,1712031207
5,newberry,34.2746,-81.6187,20.64,79,100,2.81,US,1712031434
6,ancud,-41.8697,-73.8203,9.94,75,100,2.9,CL,1712031461
7,sydney mines,46.2367,-60.2177,0.75,83,98,3.58,CA,1712031462
8,blackmans bay,-43.0167,147.3167,14.29,95,100,0.45,AU,1712031286
9,al bawiti,28.3492,28.8659,17.68,46,0,4.18,EG,1712031463
10,port mathurin,-19.6833,63.4167,26.11,84,58,5.93,MU,1712031463
11,bridgewater,44.3835,-64.5155,0.93,78,35,1.69,CA,1712031464
12,puerto natales,-51.7236,-72.4875,7.26,90,99,2.67,CL,1712031299
13,tiksi,71.6872,128.8694,-9.56,90,100,8.28,RU,1712031201
14,sinabang,2.4803,96.3801,29.67,71,92,1.05,ID,1712031466
15,astrakhan,46.3497,48.0408,5.93,93,65,3.0,RU,1712031467
16,whitehorse,60.7161,-135.0538,0.17,98,100,2.68,CA,1712031467
17,hadibu,12.65,54.0333,26.79,73,100,2.81,YE,1712031468
18,port augusta,-32.5,137.7667,21.65,51,94,8.78,AU,1712031469
19,mundwa,27.0667,73.8167,29.42,14,90,3.88,IN,1712031470
20,papatowai,-46.5619,169.4708,14.6,67,74,3.94,NZ,1712031471
21,port-aux-francais,-49.35,70.2167,7.41,91,99,10.56,TF,1712031471
22,kerikeri,-35.2268,173.9474,21.06,67,52,0.45,NZ,1712031472
23,marco island,25.9363,-81.7157,22.0,92,0,2.57,US,1712031450
24,aasiaat,68.7098,-52.8699,-8.44,92,93,2.21,GL,1712031474
25,constantia,44.1833,28.65,14.28,65,99,4.93,RO,1712031209
26,puerto ayora,-0.7393,-90.3518,24.75,95,95,1.79,EC,1712031475
27,waitangi,-43.9535,-176.5597,12.68,88,94,0.45,NZ,1712031281
28,otjiwarongo,-20.4637,16.6477,17.28,82,100,3.44,NA,1712031476
29,wailua homesteads,22.0669,-159.378,25.24,83,100,7.72,US,1712031295
30,dunedin,-45.8742,170.5036,14.54,73,14,5.59,NZ,1712031252
31,college,64.8569,-147.8028,5.18,43,75,4.12,US,1712031478
32,namibe,-15.1961,12.1522,22.57,89,71,2.15,AO,1712031479
33,kisesa,-3.0833,34.15,17.63,92,84,1.83,TZ,1712031479
34,kruisfontein,-34.0033,24.7314,16.6,79,12,4.26,ZA,1712031480
35,longyearbyen,78.2186,15.6401,-19.09,78,20,4.63,SJ,1712031480
36,tokoroa,-38.2333,175.8667,20.11,47,1,2.36,NZ,1712031476
37,stranraer,54.9023,-5.0273,6.31,91,100,2.46,GB,1712031482
38,holualoa,19.6228,-155.9522,23.91,81,100,4.12,US,1712031482
39,saint-philippe,-21.3585,55.7679,24.77,86,99,7.74,RE,1712031483
40,kazanskoye,55.6448,69.235,1.32,89,100,4.01,RU,1712031484
41,grytviken,-54.2811,-36.5092,1.0,82,23,4.75,GS,1712031473
42,bethel,41.3712,-73.414,7.34,80,0,0.0,US,1712031485
43,yellowknife,62.456,-114.3525,-6.51,97,93,2.06,CA,1712031280
44,road town,18.4167,-64.6167,25.92,73,17,8.99,VG,1712031487
45,bethanie,-26.4833,17.15,19.65,53,20,1.62,NA,1712031487
46,avarua,-21.2078,-159.775,29.03,74,75,3.09,CK,1712031488
47,tuy hoa,13.0833,109.3,32.75,57,37,4.83,VN,1712031489
48,hamilton,39.1834,-84.5333,19.56,89,0,3.09,US,1712031192
49,dolbeau-mistassini,48.8763,-72.212,-2.96,75,12,3.2,CA,1712031490
50,iqaluit,63.7506,-68.5145,-0.17,96,100,11.18,CA,1712031357
51,portland,45.5234,-122.6762,16.45,66,20,0.45,US,1712030753
52,qaqortoq,60.7167,-46.0333,-8.05,72,94,3.53,GL,1712031485
53,midvagur,62.0511,-7.1939,4.46,65,75,7.2,FO,1712031492
54,thompson,55.7435,-97.8558,-2.25,97,100,3.61,CA,1712031411
55,natal,-5.795,-35.2094,25.36,94,20,1.54,BR,1712031263
56,iquique,-20.2208,-70.1431,19.89,78,52,0.87,CL,1712031494
57,uyovu,-3.2833,31.5258,17.74,99,98,1.16,TZ,1712031495
58,lebu,-37.6167,-73.65,11.22,73,98,2.44,CL,1712031386
59,el granada,37.5027,-122.4694,16.05,59,0,5.14,US,1712031496
60,bredasdorp,-34.5322,20.0403,17.41,81,52,4.79,ZA,1712031297
61,new norfolk,-42.7826,147.0587,14.95,98,100,1.1,AU,1712031497
62,west island,-12.1568,96.8225,29.99,70,75,4.12,CC,1712031297
63,kushk,33.2957,61.9522,11.87,45,0,5.19,AF,1712031498
64,egilsstadir,65.2653,-14.3948,-4.05,93,75,4.63,IS,1712031499
65,tocopilla,-22.092,-70.1979,19.82,82,23,0.46,CL,1712031377
66,keflavik,64.0049,-22.5624,-2.05,68,20,11.83,IS,1712031500
67,talnakh,69.4865,88.3972,-11.97,94,100,7.32,RU,1712031501
68,north shore,-36.8,174.75,22.13,64,68,2.24,NZ,1712031502
69,port lincoln,-34.7333,135.8667,18.06,59,98,6.94,AU,1712031502
70,ixtapa,20.7,-105.2,23.46,83,40,0.0,MX,1712031503
71,lamas,-6.4167,-76.5333,19.48,95,99,0.67,PE,1712031503
72,ribeira grande,38.5167,-28.7,16.54,87,17,10.73,PT,1712031292
73,ushuaia,-54.8,-68.3,8.81,61,0,5.14,AR,1712031505
74,edinburgh of the seven seas,-37.0676,-12.3116,18.7,95,58,8.12,SH,1712031479
75,mutoko,-17.397,32.2268,13.4,89,74,1.4,ZW,1712031506
76,isafjordur,66.0755,-23.124,-3.03,68,98,10.25,IS,1712031506
77,bayanhongor,46.7167,100.1167,1.51,33,100,2.31,MN,1712031507
78,port elizabeth,-33.918,25.5701,17.83,78,31,1.79,ZA,1712031458
79,punta arenas,-53.15,-70.9167,9.06,66,0,6.17,CL,1712031446
80,xinzhou,38.4092,112.7333,18.73,39,100,3.56,CN,1712031510
81,petropavlovsk-kamchatsky,53.0452,158.6483,4.33,81,0,6.71,RU,1712031510
82,iskateley,67.6803,53.1512,-9.43,87,100,4.92,RU,1712031296
83,utrik,11.2278,169.8474,27.2,70,100,7.29,MH,1712031474
84,kramfors,62.9316,17.7765,-2.12,74,100,5.14,SE,1712031512
85,gadzhiyevo,69.2551,33.3362,-7.62,70,100,4.36,RU,1712031484
86,kourou,5.1552,-52.6478,25.03,88,21,2.67,GF,1712031513
87,afaahiti,-17.75,-149.2833,28.93,78,42,9.09,PF,1712031514
88,georgetown,5.4112,100.3354,32.75,72,20,3.09,MY,1712031515
89,anadyr,64.75,177.4833,-18.72,77,40,3.0,RU,1712031515
90,mosfellsbaer,64.1667,-21.7,-2.27,54,0,5.66,IS,1712031516
91,adamstown,-25.066,-130.1015,24.77,79,35,11.06,PN,1712031479
92,rongelap,11.1635,166.8941,27.19,71,98,7.34,MH,1712031518
93,mossel bay,-34.1831,22.146,17.96,72,11,7.63,ZA,1712031518
94,colonia,50.9333,6.95,9.98,88,0,3.6,DE,1712031265
95,uturoa,-16.7333,-151.4333,28.16,76,89,8.92,PF,1712031519
96,i-n-salah,27.1935,2.4607,23.53,16,0,4.11,DZ,1712031521
97,tshikapa,-6.4167,20.8,21.9,90,100,1.24,CD,1712031521
98,salekhard,66.53,66.6019,-10.87,91,100,4.44,RU,1712031522
99,xinxiang,35.3089,113.8672,19.22,40,100,8.13,CN,1712031523
100,howard springs,-12.497,131.047,32.95,74,41,4.93,AU,1712031523
101,pocito,-31.6833,-68.5833,17.33,46,31,1.72,AR,1712031524
102,port macquarie,-31.4333,152.9167,28.83,59,11,6.8,AU,1712031524
103,wytheville,36.9484,-81.0848,18.52,78,100,2.22,US,1712031525
104,port alfred,-33.5906,26.891,17.73,79,91,5.57,ZA,1712031526
105,albany,42.6001,-73.9662,5.88,65,75,1.34,US,1712031257
106,newala kisimani,-10.95,39.2833,18.81,97,98,0.33,TZ,1712031527
107,arraial do cabo,-22.9661,-42.0278,19.98,100,40,0.0,BR,1712031528
108,vilyuchinsk,52.9306,158.4028,5.15,83,100,3.52,RU,1712031529
109,daru,-9.0763,143.2092,25.85,90,100,2.09,PG,1712031529
110,spanish wells,26.323,-81.7957,21.99,61,0,0.0,US,1712031530
111,tank,32.2217,70.3793,25.67,23,96,0.25,PK,1712031530
112,orapa,-21.2833,25.3667,20.09,56,85,4.93,BW,1712031531
113,mihalgazi,40.0262,30.5771,8.78,33,34,3.01,TR,1712031532
114,port saint john's,-31.6229,29.5448,21.41,87,67,3.35,ZA,1712031532
115,piacabucu,-10.4056,-36.4344,26.47,89,91,3.06,BR,1712031533
116,senador guiomard,-10.1522,-67.7392,22.86,97,100,2.04,BR,1712031534
117,sabang,5.8933,95.3214,28.81,74,23,1.05,ID,1712031435
118,carnarvon,-24.8667,113.6333,34.04,35,5,4.52,AU,1712031535
119,lihue,21.9789,-159.3672,25.58,82,100,7.72,US,1712031305
120,vadso,70.0744,29.7487,-8.51,67,20,6.69,NO,1712031536
121,queenstown,-31.8976,26.8753,14.94,82,3,2.29,ZA,1712031485
122,tolanaro,-25.0319,46.9987,22.84,83,100,6.41,MG,1712031537
123,chibougamau,49.9168,-74.3659,-11.2,94,30,1.43,CA,1712031476
124,northam,51.0333,-4.2167,7.59,97,2,3.18,GB,1712031539
125,nemuro,43.3236,145.575,2.03,72,89,6.86,JP,1712031539
126,hermanus,-34.4187,19.2345,14.89,86,96,4.33,ZA,1712031486
127,gemena,3.25,19.7667,21.77,95,89,1.18,CD,1712031540
128,bien hoa,10.95,106.8167,32.24,42,89,3.64,VN,1712031499
129,ar ruways,24.1103,52.7306,23.72,55,97,1.94,AE,1712031541
130,labrador city,52.9463,-66.9114,-14.91,98,63,1.86,CA,1712031308
131,port-vila,-17.7338,168.3219,29.78,74,75,7.2,VU,1712031543
132,fallon,39.4735,-118.7774,7.93,61,0,3.09,US,1712031361
133,maracacume,-2.0428,-45.9592,23.85,98,58,0.89,BR,1712031544
134,mao,39.8885,4.2658,11.31,87,20,1.54,ES,1712031545
135,luganville,-15.5333,167.1667,27.89,82,28,4.27,VU,1712031545
136,mount gambier,-37.8333,140.7667,16.18,62,93,5.39,AU,1712031394
137,hastings,50.8552,0.5729,10.63,86,100,11.5,GB,1712031546
138,shalqar,47.8333,59.6,8.96,60,19,1.82,KZ,1712031547
139,mazar-e sharif,36.709,67.1109,15.47,42,97,4.81,AF,1712031548
140,santo antonio,-6.3106,-35.4789,24.48,93,100,2.16,BR,1712031548
141,puttalam,8.0362,79.8283,29.9,70,88,1.67,LK,1712031549
142,fale old settlement,-9.3852,-171.2468,29.72,73,33,4.3,TK,1712031549
143,dravograd,46.5881,15.0192,9.58,96,100,1.4,SI,1712031550
144,alofi,-19.0595,-169.9187,29.94,74,75,8.23,NU,1712031474
145,tazovsky,67.4667,78.7,-13.65,95,92,1.95,RU,1712031551
146,kivertsi,50.8343,25.4582,15.08,67,100,4.67,UA,1712031553
147,codrington,-38.2667,141.9667,16.25,65,96,9.59,AU,1712031553
148,icano,-28.9193,-65.3282,17.82,81,100,1.86,AR,1712031554
149,anahuac,27.2333,-100.15,31.71,23,100,8.04,MX,1712031555
150,moose jaw,50.4001,-105.5344,2.85,73,6,3.61,CA,1712031446
151,saipan,15.1355,145.701,32.39,58,75,9.26,MP,1712031283
152,nivala,63.9167,24.9667,-4.06,90,100,3.62,FI,1712031557
153,kargasok,59.0556,80.8572,0.54,100,100,1.79,RU,1712031393
154,khodzha-maston,38.7446,68.627,5.68,55,100,2.77,TJ,1712031558
155,nephi,39.7102,-111.8363,5.16,84,48,2.7,US,1712031559
156,obo,5.3998,26.4869,22.49,75,99,1.78,CF,1712031559
157,ta`u,-14.2336,-169.5144,29.31,72,37,8.71,AS,1712031560
158,olonkinbyen,70.9221,-8.7187,-5.24,60,100,4.62,SJ,1712031561
159,stanley,54.868,-1.6985,3.73,98,20,0.0,GB,1712031301
160,choma,-16.8065,26.9531,16.2,77,94,1.23,ZM,1712031555
161,harpalpur,25.2884,79.3347,29.81,14,100,1.4,IN,1712031562
162,port douglas,-16.4833,145.4667,28.16,72,83,5.7,AU,1712031563
163,paracale,14.2804,122.7881,30.44,58,12,4.33,PH,1712031564
164,saint-pierre,-21.3393,55.4781,25.82,78,100,12.35,RE,1712031505
165,amga,60.8953,131.9608,-3.69,80,96,1.57,RU,1712031565
166,ilulissat,69.2167,-51.1,-3.99,80,100,0.0,GL,1712031565
167,kayangel,8.0823,134.7173,28.02,79,48,7.1,PW,1712031566
168,dryden,49.7833,-92.7503,-0.84,47,75,1.03,CA,1712031567
169,praia da vitoria,38.7333,-27.0667,15.98,82,20,8.23,PT,1712031567
170,afif,23.9065,42.9172,16.39,75,100,5.64,SA,1712031568
171,san patricio,28.017,-97.5169,24.05,89,92,6.77,US,1712031568
172,portstewart,55.1813,-6.714,6.56,90,100,2.86,GB,1712031569
173,dame-marie,18.5667,-74.4167,24.41,79,31,1.49,HT,1712031570
174,aplahoue,6.9333,1.6833,26.35,84,97,1.75,BJ,1712031570
175,vorgashor,67.5833,63.95,-10.17,84,100,5.42,RU,1712031571
176,darnah,32.767,22.6367,20.1,40,0,4.47,LY,1712031572
177,tukrah,32.5341,20.5791,20.21,33,0,2.23,LY,1712031572
178,pacasmayo,-7.4006,-79.5714,22.15,81,18,3.97,PE,1712031573
179,al ain city,24.1917,55.7606,21.79,35,0,2.06,AE,1712031573
180,remire-montjoly,4.9167,-52.2667,25.02,100,20,1.03,GF,1712031574
181,tenenkou,14.4572,-4.9169,31.28,13,0,2.38,ML,1712031575
182,nova sintra,14.8667,-24.7167,19.05,81,21,8.31,CV,1712031575
183,axim,4.8699,-2.2405,27.13,88,100,0.73,GH,1712031576
184,badger,64.8,-147.5333,5.14,40,0,4.12,US,1712031482
185,zhanaozen,43.3,52.8,11.6,41,1,3.08,KZ,1712031577
186,mazagao,-0.115,-51.2894,27.03,98,94,1.56,BR,1712031578
187,batang,-6.4846,110.7083,29.63,74,31,2.37,ID,1712031318
188,lorengau,-2.0226,147.2712,28.53,82,71,4.12,PG,1712031579
189,cabo san lucas,22.8909,-109.9124,20.9,69,16,1.79,MX,1712031282
190,quepos,9.4236,-84.1652,26.57,68,0,0.98,CR,1712031580
191,novobod,39.0108,70.1508,8.75,44,100,2.18,TJ,1712031581
192,iranshahr,27.2025,60.6848,22.19,43,79,0.0,IR,1712031581
193,puntarenas,9.9763,-84.8384,26.68,60,1,1.49,CR,1712031384
194,sindhnur,15.7833,76.7667,34.91,25,15,4.26,IN,1712031583
195,tofol,5.3248,163.0078,28.26,80,88,8.37,FM,1712031583
196,aykhal,66.0,111.5,-15.18,75,74,3.01,RU,1712031584
197,nogliki,51.8333,143.1667,0.19,91,100,1.34,RU,1712031584
198,christchurch,-43.5333,172.6333,16.41,60,20,4.63,NZ,1712030781
199,lazaro cardenas,17.9583,-102.2,23.11,85,100,1.26,MX,1712031348
200,grand falls-windsor,48.9332,-55.6649,0.84,92,100,1.34,CA,1712031587
201,chonchi,-42.6128,-73.8092,10.07,86,100,1.54,CL,1712031588
202,yanam,16.7333,82.2167,34.52,44,7,2.36,IN,1712031589
203,mount isa,-20.7333,139.5,31.87,43,40,3.6,AU,1712031590
204,dudinka,69.4058,86.1778,-11.85,93,100,10.28,RU,1712031472
205,fukuecho,32.6881,128.8419,18.2,77,75,5.14,JP,1712031591
206,sao jose da coroa grande,-8.8978,-35.1478,26.48,86,90,2.37,BR,1712031592
207,miyako,39.6367,141.9525,10.58,43,4,3.21,JP,1712031592
208,maricopa,33.0581,-112.0476,14.94,85,40,0.89,US,1712031593
209,at taj,24.2049,23.2857,18.83,30,1,5.14,LY,1712031594
210,prado,-17.3411,-39.2208,25.16,83,100,2.95,BR,1712031594
211,kharp,66.8014,65.8081,-13.24,95,100,2.2,RU,1712031595
212,tibanbang,6.6315,126.1055,27.91,71,64,1.96,PH,1712031596
213,revda,56.801,59.9303,2.83,88,100,4.0,RU,1712031592
214,verkhov'ye,52.8119,37.2425,9.53,91,48,3.91,RU,1712031597
215,guia lopes da laguna,-21.4578,-56.1142,22.26,98,14,1.05,BR,1712031423
216,puerto armuelles,8.2833,-82.8667,28.94,55,1,0.45,PA,1712031352
217,yaremche,48.4583,24.5519,12.34,55,87,2.57,UA,1712031599
218,klyuchi,52.2667,79.1667,4.76,73,100,4.57,RU,1712031599
219,atherton,53.5237,-2.4935,6.9,96,99,0.42,GB,1712031600
220,atafu village,-8.5421,-172.5159,29.95,71,65,4.77,TK,1712031304
221,coari,-4.085,-63.1414,23.89,98,100,0.73,BR,1712031562
222,langepas,61.2544,75.2124,0.13,100,100,2.31,RU,1712031602
223,coquimbo,-29.9533,-71.3436,17.6,71,36,3.07,CL,1712031322
224,la passe,45.5549,-0.8967,11.1,87,37,6.14,FR,1712031603
225,nagqu,31.5,92.0,5.44,12,51,9.64,CN,1712031604
226,bad zwischenahn,53.1833,8.0,8.39,91,100,6.51,DE,1712031604
227,gokwe,-18.2048,28.9349,15.95,69,91,3.0,ZW,1712031605
228,sarh,9.1429,18.3923,27.48,41,100,2.24,TD,1712031606
229,okhotsk,59.3833,143.3,-0.64,71,38,6.61,RU,1712031586
230,hawaiian paradise park,19.5933,-154.9731,21.73,95,100,1.54,US,1712031573
231,omdurman,15.6445,32.4777,24.86,16,8,4.54,SD,1712031608
232,dalnegorsk,44.5604,135.5701,8.11,44,43,4.92,RU,1712031608
233,mumford,5.2618,-0.759,27.48,86,100,2.5,GH,1712031609
234,ongjin,37.9347,125.3619,13.6,39,100,4.48,KP,1712031610
235,veraval,20.9,70.3667,28.02,45,99,4.31,IN,1712031610
236,jalai nur,49.45,117.7,1.8,50,7,8.73,CN,1712031611
237,kidal,18.4411,1.4078,29.94,17,55,5.71,ML,1712031611
238,istgah-e rah ahan-e garmsar,35.2346,52.3094,13.23,37,2,3.06,IR,1712031613
239,kristiansund,63.1115,7.732,3.03,87,75,8.23,NO,1712031613
240,taksimo,56.3444,114.8794,0.09,55,100,2.5,RU,1712031614
241,saint-louis du nord,19.9333,-72.7167,24.52,74,4,7.25,HT,1712031615
242,machachi,-0.5,-78.5667,12.09,98,100,0.8,EC,1712031615
243,cidade velha,14.9167,-23.6167,21.26,78,20,6.17,CV,1712031616
244,margaret river,-33.95,115.0667,20.92,38,0,3.71,AU,1712031616
245,wuchang,44.9143,127.15,8.83,25,60,3.09,CN,1712031617
246,enewetak,11.3474,162.3373,27.21,73,96,7.58,MH,1712031618
247,mejit,10.2753,170.8646,27.39,72,100,6.81,MH,1712031618
248,supaul,26.1167,86.6,32.49,13,13,5.5,IN,1712031619
249,maragogi,-9.0122,-35.2225,26.35,87,94,2.4,BR,1712031620
250,el calafate,-50.3408,-72.2768,7.07,84,62,1.55,AR,1712031620
251,sciacca,37.5082,13.0881,13.35,80,100,4.8,IT,1712031621
252,isola di capo rizzuto,38.96,17.0933,14.55,72,51,3.92,IT,1712031621
253,gagra,43.3283,40.2239,12.51,64,81,2.87,GE,1712031622
254,undurkhaan,47.3194,110.6556,2.7,49,88,2.53,MN,1712031623
255,baghpat,28.95,77.2167,26.04,16,91,4.24,IN,1712031623
256,tralee,52.2704,-9.7026,5.43,92,9,1.86,IE,1712031624
257,tsiombe,-25.3,45.4833,22.56,78,3,7.38,MG,1712031624
258,sirvintos,55.05,24.95,13.68,83,100,4.04,LT,1712031626
259,timmins,48.4669,-81.3331,-4.1,63,0,2.57,CA,1712031525
260,turpan,42.9333,89.1667,14.3,48,100,2.18,CN,1712031627
261,ostroleka,53.0862,21.5757,13.29,92,100,6.47,PL,1712031627
262,pekanbaru,0.5333,101.45,31.18,74,40,2.57,ID,1712031628
263,noshiro,40.2039,140.0242,10.46,54,85,7.64,JP,1712031629
264,ola,59.5833,151.2833,-1.03,61,54,5.38,RU,1712031629
265,brady,31.1352,-99.3351,18.25,45,100,4.63,US,1712031630
266,pisco,-13.7,-76.2167,22.03,78,0,1.03,PE,1712031383
267,olavarria,-36.8927,-60.3225,10.31,54,0,1.89,AR,1712031631
268,udachny,66.4167,112.4,-14.39,75,97,4.85,RU,1712031632
269,san sebastian de la gomera,28.0916,-17.1133,17.43,77,0,1.03,ES,1712031632
270,kingscliff,-28.2667,153.5667,27.65,66,2,6.69,AU,1712031160
271,puerto princesa,9.7392,118.7353,30.63,59,98,3.71,PH,1712031390
272,birjand,32.8663,59.2211,11.26,28,0,2.06,IR,1712031634
273,mandiana,10.6333,-8.6833,28.92,50,68,2.01,GN,1712031635
274,minas de marcona,-15.2119,-75.1103,17.41,83,57,3.61,PE,1712031636
275,el alto,-4.2714,-81.2147,22.04,74,100,5.4,PE,1712031637
276,borogontsy,62.6683,131.1683,-5.56,82,94,2.49,RU,1712031638
277,zhenjiang,32.2092,119.4342,17.67,92,100,1.21,CN,1712031639
278,karratha,-20.7377,116.8463,37.72,24,0,7.96,AU,1712031639
279,greymouth,-42.4667,171.2,16.21,61,70,2.15,NZ,1712031640
280,kirakira,-10.4544,161.9205,28.59,78,64,0.44,SB,1712031641
281,balabac,7.9868,117.0645,29.75,67,41,6.52,PH,1712031641
282,cururupu,-1.8283,-44.8683,24.58,96,58,1.02,BR,1712031642
283,kailua-kona,19.6406,-155.9956,25.98,82,100,4.12,US,1712031642
284,kavaratti,10.5669,72.642,28.52,73,99,3.3,IN,1712031643
285,ulsteinvik,62.3432,5.8487,4.06,83,78,6.71,NO,1712031644
286,bac lieu,9.285,105.7244,31.68,59,31,5.09,VN,1712031555
287,la'ie,21.6477,-157.9253,25.98,80,21,2.68,US,1712031646
288,chernogorsk,53.8236,91.2842,7.76,49,0,3.0,RU,1712031646
289,east london,-33.0153,27.9116,16.52,82,20,4.12,ZA,1712031647
290,minas novas,-17.2186,-42.5903,21.33,99,84,0.77,BR,1712031648
291,ghat,24.9647,10.1728,22.99,12,0,0.81,LY,1712031648
292,namsos,64.4662,11.4957,0.03,74,75,5.14,NO,1712031649
293,mount pearl,47.5166,-52.7813,0.47,96,100,3.6,CA,1712031649
294,puerto baquerizo moreno,-0.9,-89.6,24.27,82,74,2.8,EC,1712031650
295,kuqa,41.7278,82.9364,9.35,39,3,0.52,CN,1712031651
296,severnoye,56.3491,78.3619,-0.57,90,100,4.92,RU,1712031651
297,weno,7.4515,151.8468,30.97,79,75,3.6,FM,1712031652
298,truro,50.2653,-5.0544,10.42,100,75,5.66,GB,1712031652
299,sao vicente,-23.9631,-46.3919,26.1,26,90,1.0,BR,1712031440
300,caconda,-13.7333,15.0667,15.69,95,100,1.39,AO,1712031654
301,registro,-24.4875,-47.8436,21.57,95,95,0.28,BR,1712031592
302,bilibino,68.0546,166.4372,-14.67,69,49,0.57,RU,1712031475
303,recani,31.2846,-4.2688,16.18,34,0,2.03,MA,1712031656
304,cao bang,22.6667,106.25,35.38,34,5,3.93,VN,1712031656
305,svetlyy,54.675,20.1347,12.03,93,99,6.57,RU,1712031621
306,ebeltoft,56.1944,10.6821,6.01,87,100,6.17,DK,1712031657
307,tazacorte,28.629,-17.9293,16.54,84,20,3.13,ES,1712031478
308,g'uzor,38.6214,66.2522,11.02,41,100,3.13,UZ,1712031659
309,telimele,10.9167,-13.3333,22.8,66,88,1.01,GN,1712031659
310,kharkhorin,47.1975,102.8238,3.21,31,100,1.27,MN,1712031660
311,kumagunnam,13.1551,10.6342,28.8,15,80,3.7,NG,1712031660
312,radzymin,52.4159,21.1841,13.93,77,100,6.66,PL,1712031662
313,hasaki,35.7333,140.8333,21.27,58,46,5.09,JP,1712031662
314,valdivia,-39.8142,-73.2459,11.05,77,100,0.6,CL,1712031663
315,saudarkrokur,65.7461,-19.6394,-3.72,75,69,8.69,IS,1712031664
316,otavalo,0.2333,-78.2667,14.12,96,100,1.5,EC,1712031376
317,happy valley-goose bay,53.3168,-60.3315,1.17,93,75,6.17,CA,1712031665
318,al jawf,29.5,38.75,18.29,47,28,3.96,SA,1712031665
319,sangueya,10.7,-14.3667,22.71,83,83,0.84,GN,1712031666
320,kolonia,50.9333,6.95,9.98,88,0,3.6,DE,1712031667
321,mitu,1.1983,-70.1733,23.13,98,100,0.25,CO,1712031667
322,jayanca,-6.3908,-79.8219,22.94,70,50,2.66,PE,1712031668
323,manokwari,-0.8667,134.0833,26.69,88,100,4.11,ID,1712031668
324,charef,34.621,2.795,6.9,46,0,1.51,DZ,1712031375
325,suva,-18.1416,178.4415,29.71,79,75,3.6,FJ,1712031430
326,taltal,-25.4,-70.4833,18.72,84,40,1.07,CL,1712031670
327,crane,31.3974,-102.3501,17.36,19,1,10.93,US,1712031671
328,timbuktu,16.7735,-3.0074,30.6,17,4,2.41,ML,1712031672
329,jalandhar,31.3256,75.5792,26.92,22,66,2.55,IN,1712031455
330,murehwa,-17.6432,31.784,13.92,83,97,1.14,ZW,1712031673
331,colares,38.7992,-9.4469,15.18,93,100,8.05,PT,1712031673
332,morehead city,34.7229,-76.726,18.01,89,0,3.6,US,1712031674
333,maqat,47.65,53.3167,11.3,50,68,2.86,KZ,1712031674
334,khandyga,62.6667,135.6,-7.98,85,100,1.1,RU,1712031675
335,rugaji,57.0,27.1333,11.3,87,100,2.17,LV,1712031676
336,palikir - national government center,6.9248,158.1611,31.47,79,100,6.17,FM,1712031676
337,khanty-mansiysk,61.0042,69.0019,0.06,69,75,2.0,RU,1712031677
338,carauari,-4.8828,-66.8958,23.24,99,100,0.96,BR,1712031678
339,sisimiut,66.9395,-53.6735,-4.65,78,87,3.74,GL,1712031679
340,prainha,-1.8,-53.48,23.95,94,88,1.08,BR,1712031680
341,pontes e lacerda,-15.2261,-59.3353,24.93,83,100,1.34,BR,1712031680
342,yichang,30.7144,111.2847,20.28,94,100,0.82,CN,1712031468
343,gobabis,-22.45,18.9667,17.71,81,69,3.41,NA,1712031681
344,stallings,35.0907,-80.6862,21.33,76,0,5.14,US,1712031682
345,durango,24.8333,-104.8333,14.1,43,0,9.73,MX,1712031480
346,jamestown,42.097,-79.2353,7.8,72,100,4.63,US,1712031665
347,nar'yan-mar,67.6713,53.087,-9.38,87,100,4.92,RU,1712031456
348,corn island,12.1694,-83.0418,27.44,71,7,5.54,NI,1712031684
349,banda aceh,5.5577,95.3222,30.81,65,16,1.12,ID,1712031685
350,motueka,-41.1333,173.0167,17.83,81,100,2.02,NZ,1712031686
351,isangel,-19.55,169.2667,30.06,74,75,1.03,VU,1712031686
352,ginir,7.1333,40.7,15.9,85,57,1.89,ET,1712031687
353,tosontsengel,48.7567,98.2839,-3.42,75,9,1.09,MN,1712031687
354,tateyama,34.9833,139.8667,15.03,62,96,2.44,JP,1712031688
355,lijiang,26.8688,100.2207,18.54,35,42,2.3,CN,1712031689
356,smithers,54.7804,-127.1743,5.18,87,100,3.6,CA,1712031689
357,konstantinovka,49.6167,127.9833,4.33,46,39,3.31,RU,1712031690
358,nairn,57.5809,-3.8797,7.08,93,100,6.17,GB,1712031691
359,elverum,60.8819,11.5623,-1.55,87,75,2.78,NO,1712031691
360,akune,32.0167,130.2,19.87,67,100,3.22,JP,1712031692
361,troitskoye,52.9821,84.6757,5.26,77,100,4.11,RU,1712031692
362,teshi old town,5.5836,-0.1072,29.31,84,0,3.09,GH,1712031693
363,alice springs,-23.7,133.8833,28.45,37,0,6.17,AU,1712031444
364,sydney,-33.8679,151.2073,22.94,82,75,6.69,AU,1712031314
365,ust-nera,64.5667,143.2,-7.96,71,13,1.54,RU,1712031696
366,sterling,39.0062,-77.4286,11.79,84,100,1.79,US,1712031543
367,quatre cocos,-20.2078,57.7625,25.06,83,100,8.52,MU,1712031698
368,barra de santo antonio,-9.4047,-35.5072,26.6,88,73,3.03,BR,1712031699
369,mana,5.6592,-53.7767,26.43,86,28,3.17,GF,1712031700
370,sweetwater,25.7634,-80.3731,24.01,81,75,3.09,US,1712031255
371,gisborne,-38.6533,178.0042,17.72,71,23,4.02,NZ,1712031702
372,bang rakam,16.7585,100.1174,36.09,51,0,2.57,TH,1712031703
373,el nido,11.1858,119.3956,29.0,71,100,5.83,PH,1712031704
374,chicoana,-25.1009,-65.5331,19.03,97,100,1.23,AR,1712031705
375,rodolfo sanchez taboada,31.7167,-116.5667,13.94,77,3,1.79,MX,1712031706
376,taroa,8.7058,171.2275,27.43,74,99,8.18,MH,1712031706
377,kapuskasing,49.4169,-82.4331,-4.61,89,16,2.94,CA,1712031407
378,urangan,-25.3,152.9,25.75,63,1,0.97,AU,1712031708
379,lodja,-3.4833,23.4333,21.42,95,95,1.06,CD,1712031708
380,reggane,26.7158,0.1714,24.78,17,0,2.94,DZ,1712031709
381,yuzhno-kurilsk,44.0306,145.8556,1.32,84,68,7.91,RU,1712031710
382,sirsa,29.5333,75.0167,29.02,14,43,1.46,IN,1712031711
383,rio grande,-32.035,-52.0986,19.69,86,100,6.49,BR,1712031606
384,lompoc,34.6391,-120.4579,13.4,88,0,4.47,US,1712031501
385,vallenar,-28.5708,-70.7581,21.29,59,1,0.98,CL,1712031712
386,saint-francois,46.4154,3.9054,7.69,78,0,2.57,FR,1712031596
387,tugulym,57.0591,64.6425,0.04,85,94,2.63,RU,1712031681
388,kirensk,57.7853,108.1119,-3.91,85,98,1.79,RU,1712031714
389,brookings,44.3114,-96.7984,1.36,96,100,3.6,US,1712031715
390,newman,37.3138,-121.0208,15.99,76,0,2.24,US,1712031710
391,ajdabiya,30.7554,20.2263,22.04,26,0,3.56,LY,1712031716
392,fort bragg,35.139,-79.006,22.12,76,0,2.57,US,1712031717
393,tan-tan,28.438,-11.1032,15.74,87,2,3.32,MA,1712031717
394,castillos,-34.1667,-53.8333,15.04,75,91,3.61,UY,1712031718
395,ust-tsilma,65.441,52.1498,0.9,98,100,3.58,RU,1712031557
396,umarkot,25.3616,69.7362,29.75,26,86,4.8,PK,1712031719
397,rawlins,41.7911,-107.2387,-0.92,74,0,2.57,US,1712031720
398,kolonia town,6.964,158.206,32.06,79,100,6.17,FM,1712031720
399,suoyarvi,62.0833,32.35,-0.67,93,100,3.56,RU,1712031496
400,swakopmund,-22.6833,14.5333,14.47,91,70,1.36,NA,1712031722
401,calama,-22.4667,-68.9333,13.48,41,0,1.78,CL,1712031503
402,fuglafjordur,62.244,-6.814,4.26,74,100,12.86,FO,1712031723
403,sosnovka,56.255,51.2842,3.81,99,100,4.32,RU,1712031724
404,cockburn town,21.4612,-71.1419,24.66,67,1,8.2,TC,1712031724
405,shenjiamen,29.9576,122.298,14.48,98,100,7.58,CN,1712031725
406,tongliao,43.6125,122.2653,13.71,32,26,5.48,CN,1712031725
407,ponta delgada,37.7333,-25.6667,16.4,82,20,9.77,PT,1712031726
408,mugia,43.1041,-9.2179,14.39,90,98,15.21,ES,1712031727
409,pitimbu,-7.4706,-34.8086,26.33,87,80,3.89,BR,1712031728
410,sosnovo-ozerskoye,52.5249,111.5418,-2.72,37,72,7.5,RU,1712031728
411,passo fundo,-28.2628,-52.4067,18.24,74,4,1.54,BR,1712031475
412,san luis de la loma,17.2706,-100.8939,24.59,81,76,2.02,MX,1712031730
413,st. john's,47.5649,-52.7093,0.93,96,100,3.6,CA,1712031634
414,kapa'a,22.0752,-159.319,25.99,82,100,7.72,US,1712031731
415,douentza,14.9951,-2.9517,29.06,15,0,0.77,ML,1712031732
416,levis,46.8033,-71.1779,0.23,95,100,1.03,CA,1712031530
417,broome,42.2506,-75.833,7.21,77,0,1.54,US,1712031733
418,muncheberg,52.5,14.1333,9.42,89,95,5.93,DE,1712031733
419,preobrazheniye,42.9019,133.9064,6.12,46,2,5.44,RU,1712031734
420,acarau,-2.8856,-40.12,26.04,85,84,1.72,BR,1712031735
421,laojunmiao,39.8333,97.7333,6.78,43,53,1.94,CN,1712031735
422,benghazi,32.1167,20.0667,21.14,35,0,4.35,LY,1712031736
423,birao,10.2849,22.7882,25.3,37,98,1.8,CF,1712031737
424,dimako,4.3833,13.5667,21.25,84,100,0.85,CM,1712031737
425,kovdor,67.5662,30.4758,-21.55,100,20,1.77,RU,1712031738
426,upington,-28.4478,21.2561,23.03,57,42,2.07,ZA,1712031452
427,mezhdurechenskiy,59.6,65.9333,-0.17,85,94,2.09,RU,1712031681
428,kalmeshwar,21.2333,78.9,33.79,14,0,1.34,IN,1712031740
429,meadow lakes,61.6247,-149.6011,2.62,85,100,3.09,US,1712031740
430,boa vista,2.8197,-60.6733,29.99,51,20,1.54,BR,1712031738
431,addis ababa,9.025,38.7469,14.74,81,100,1.19,ET,1712031586
432,qaryat suluq,31.6682,20.2521,20.36,25,0,4.69,LY,1712031742
433,misratah,32.3754,15.0925,18.84,75,0,5.33,LY,1712031743
434,teknaf,20.8624,92.3058,30.38,65,29,3.83,BD,1712031743
435,kandahar,31.0,65.75,18.48,13,54,0.65,AF,1712031736
436,zubtsov,56.1753,34.5894,9.75,91,30,2.53,RU,1712031655
437,sengkang,-4.1279,120.0297,33.86,54,52,1.05,ID,1712031746
438,rikaze,29.25,88.8833,9.34,29,63,0.68,CN,1712031746
439,suleja,9.1758,7.1808,26.55,70,63,0.26,NG,1712031747
440,lerwick,60.1545,-1.1494,6.0,75,100,13.78,GB,1712031747
441,ankang,32.68,109.0172,18.23,90,100,0.09,CN,1712031748
442,ivdel',60.6911,60.4206,0.1,92,100,1.79,RU,1712031749
443,arkhangel'sk,64.5401,40.5433,-1.04,100,100,4.0,RU,1712031466
444,nizhneangarsk,55.7833,109.55,-5.0,69,100,0.89,RU,1712031653
445,zhezqazghan,47.7833,67.7667,6.32,61,0,3.0,KZ,1712031750
446,susuman,62.7833,148.1667,-7.79,58,17,1.79,RU,1712031751
447,as sulayyil,20.4607,45.5779,18.14,60,11,5.07,SA,1712031752
448,huarmey,-10.0681,-78.1522,22.11,86,96,2.66,PE,1712031752
449,kingston,17.997,-76.7936,27.53,81,20,3.09,JM,1712031732
450,hobyo,5.3505,48.5268,28.96,74,21,6.03,SO,1712031753
451,naze,28.3667,129.4833,22.51,81,100,6.62,JP,1712031611
452,chongwe,-15.3292,28.682,16.32,87,73,1.89,ZM,1712031755
453,ramacca,37.3881,14.6927,14.52,58,97,1.8,IT,1712031755
454,manacapuru,-3.2997,-60.6206,25.08,92,100,0.87,BR,1712031757
455,mokopane,-24.1944,29.0097,14.3,80,15,1.85,ZA,1712031757
456,tura,25.5198,90.2201,30.92,27,0,3.25,IN,1712031471
457,vorkuta,67.5,64.0,-9.54,82,100,5.51,RU,1712031758
458,qarah bagh,34.9402,61.7759,7.25,81,99,7.88,AF,1712031759
459,sitka,57.0531,-135.33,5.94,81,100,5.66,US,1712031760
460,berdigestyakh,62.0989,126.6992,-3.6,83,90,1.99,RU,1712031760
461,muravlenko,63.7898,74.523,-6.77,95,89,2.12,RU,1712031761
462,pasuquin,18.3328,120.6177,30.97,74,20,4.63,PH,1712031762
463,beira,-19.8436,34.8389,25.05,94,100,3.09,MZ,1712031762
464,merritt island,28.5392,-80.672,23.01,81,0,5.14,US,1712031763
465,caister-on-sea,52.6481,1.7265,8.88,94,36,4.74,GB,1712031763
466,canacona,14.9959,74.0506,29.74,59,5,1.38,IN,1712031764
467,macau,22.2006,113.5461,31.51,79,40,6.69,MO,1712031724
468,richards bay,-28.783,32.0377,20.51,84,35,4.24,ZA,1712031428
469,lakatoro,-16.0999,167.4164,28.79,74,19,5.18,VU,1712031766
470,anna regina,7.2644,-58.5077,26.4,86,54,3.82,GY,1712031766
471,harper,4.375,-7.7169,26.54,90,68,1.81,LR,1712031767
472,khorinsk,52.1657,109.7726,-1.06,30,95,7.4,RU,1712031767
473,tamanrasset,22.785,5.5228,15.95,11,0,2.06,DZ,1712031768
474,sept-iles,50.2001,-66.3821,-0.71,70,20,4.12,CA,1712031607
475,miri,4.4148,114.0089,29.08,79,40,1.54,MY,1712031769
476,san antonio oeste,-40.7319,-64.9477,15.81,31,0,6.71,AR,1712031635
477,keetmanshoop,-26.5833,18.1333,20.51,56,40,1.54,NA,1712031770
478,kodiak,57.79,-152.4072,-3.27,68,100,11.83,US,1712031771
479,vrangel',42.7297,133.0839,4.3,56,0,6.84,RU,1712031772
480,shingu,33.7333,135.9833,19.34,48,100,2.47,JP,1712031772
481,roosevelt,33.9668,-103.4505,7.12,46,29,9.99,US,1712031773
482,quelimane,-17.8786,36.8883,22.52,97,86,1.87,MZ,1712031774
483,margate,51.3813,1.3862,9.61,82,94,4.02,GB,1712031774
484,kavieng,-2.5744,150.7967,29.53,71,94,3.84,PG,1712031775
485,callao,-12.0667,-77.15,24.84,73,0,6.17,PE,1712031775
486,wakkanai,45.4094,141.6739,4.99,65,75,8.75,JP,1712031776
487,lyantonde,-0.4031,31.1572,17.93,93,99,1.0,UG,1712031777
488,phek,25.6667,94.5,23.07,28,0,0.58,IN,1712031777
489,riberalta,-10.9833,-66.1,24.2,92,100,1.54,BO,1712031778
490,bardai,11.65,7.2333,25.88,21,62,3.3,NG,1712031778
491,carbonear,47.7332,-53.2148,1.19,96,100,5.21,CA,1712031779
492,freetown,8.484,-13.2299,25.39,87,57,1.96,SL,1712031780
493,qarazhal,48.0078,70.7903,6.67,62,100,1.07,KZ,1712031780
494,gafsa,34.425,8.7842,15.12,67,1,7.2,TN,1712031781
495,kualakapuas,-3.0091,114.3876,33.78,53,21,1.3,ID,1712031782
496,seydi,39.4816,62.9137,13.21,34,99,2.73,TM,1712031783
497,haiku-pauwela,20.9219,-156.3051,23.45,80,0,8.75,US,1712031783
498,umba,66.6871,34.3429,-10.1,88,93,4.18,RU,1712031784
499,taitung city,22.7583,121.1444,29.15,65,40,3.6,TW,1712031785
500,tarinkot,32.6268,65.8733,16.49,23,86,1.1,AF,1712031735
501,cole harbour,44.6724,-63.4751,1.66,80,12,0.45,CA,1712031786
502,ataq,14.5377,46.8319,22.2,44,96,2.52,YE,1712031787
503,santo antonio do ica,-3.1022,-67.9397,23.12,99,100,1.17,BR,1712031787
504,barcelos,41.5388,-8.6151,14.08,86,100,5.32,PT,1712031783
505,dapa,9.7594,126.0531,28.75,69,85,5.33,PH,1712031788
506,isna,25.2934,32.554,21.01,35,0,0.32,EG,1712031789
507,kaa-khem,51.6833,94.7333,-3.66,80,54,1.3,RU,1712031790
508,qamdo,31.1667,97.2333,4.17,36,84,3.53,CN,1712031790
509,santiago de cuba,20.0247,-75.8219,25.06,78,20,2.06,CU,1712031791
510,khambhat,22.3,72.6167,29.55,33,100,2.57,IN,1712031792
511,kone,-21.0595,164.8658,29.26,52,49,2.32,NC,1712031705
512,inongo,-1.95,18.2667,22.59,90,100,1.38,CD,1712031794
513,bedesa,8.9,40.7833,18.27,83,93,0.97,ET,1712031794
514,marica,-22.9194,-42.8186,23.95,89,42,1.56,BR,1712031795
515,veinticinco de mayo,-35.4323,-60.1727,12.21,90,1,2.94,AR,1712031796
516,sarmiento,-45.5882,-69.07,10.04,53,32,5.53,AR,1712031796
517,jutai,-5.1833,-68.9,23.21,99,100,1.32,BR,1712031797
518,fort st. john,56.2499,-120.8529,6.94,39,75,6.17,CA,1712031798
519,igarka,67.4667,86.5833,-9.21,93,100,7.9,RU,1712031798
520,mammoth lakes,37.6485,-118.9721,1.4,48,0,4.63,US,1712031800
521,miyaly,48.8844,53.7836,9.42,59,98,3.58,KZ,1712031800
522,tadine,-21.55,167.8833,26.37,66,58,5.73,NC,1712031705
523,bima,-8.4667,118.7167,31.39,70,39,1.8,ID,1712031802
524,rabo de peixe,37.8,-25.5833,15.73,82,20,9.77,PT,1712031802
525,toliara,-23.35,43.6667,26.04,65,14,6.62,MG,1712031803
526,eyl,7.9803,49.8164,27.97,75,20,4.87,SO,1712031768
527,waingapu,-9.6567,120.2641,30.66,67,47,3.31,ID,1712031804
528,tobruk,32.0836,23.9764,18.3,54,0,2.32,LY,1712031805
529,east ballina,-28.8667,153.5833,28.78,66,1,5.48,AU,1712031805
530,diamondhead,30.3946,-89.3639,22.73,94,99,4.23,US,1712031806
531,trindade,-16.6494,-49.4889,23.86,94,90,0.3,BR,1712031640
532,palu,-0.8917,119.8707,29.79,80,83,1.37,ID,1712031807
533,burang,30.25,81.1667,-0.87,57,3,2.53,CN,1712031808
534,auki,-8.7676,160.7034,28.36,78,97,1.15,SB,1712031809
535,brad,46.1333,22.7833,14.51,63,30,8.72,RO,1712031809
536,touros,-5.1989,-35.4608,26.59,84,100,3.89,BR,1712031810
537,quellon,-43.1167,-73.6167,9.65,82,100,4.37,CL,1712031811
538,kalmunai,7.4167,81.8167,29.81,72,74,1.16,LK,1712031811
539,cidreira,-30.1811,-50.2056,22.21,91,95,4.58,BR,1712031812
540,yen vinh,18.6667,105.6667,36.44,33,0,3.6,VN,1712031796
541,labytnangi,66.6572,66.4183,-11.94,94,100,2.67,RU,1712031813
542,lagoa,39.05,-27.9833,14.82,84,1,14.12,PT,1712031814
543,santa ana,33.7456,-117.8678,16.85,71,0,2.57,US,1712031755
544,n'zeto,-7.2312,12.8666,26.53,93,100,3.23,AO,1712031815
545,phulbani,20.4667,84.2333,36.02,20,0,3.68,IN,1712031816
546,abalak,58.1286,68.5944,-2.58,97,68,2.83,RU,1712031816
547,zheleznogorsk-ilimskiy,56.5768,104.1217,-7.57,87,99,0.89,RU,1712031817
548,mili,6.0815,171.735,28.17,79,100,8.46,MH,1712031817
549,albertina,-22.2008,-46.6158,18.09,73,85,1.76,BR,1712031818
550,auxerre,47.8,3.5667,7.02,92,83,6.96,FR,1712031819
551,mountain home,43.133,-115.6912,9.52,55,0,4.12,US,1712031633
552,sur,22.5667,59.5289,27.29,44,82,1.49,OM,1712031820
553,hammerfest,70.6634,23.6821,-8.75,92,100,0.0,NO,1712031820
554,puerto aysen,-45.4,-72.7,6.98,99,100,1.26,CL,1712031571
555,leava,-14.3,-178.1667,29.66,79,84,8.24,WF,1712031822
556,chokwe,-24.5333,32.9833,18.77,97,56,1.54,MZ,1712031823
557,fortuna,40.5982,-124.1573,12.03,93,0,0.45,US,1712031669
558,estreito,-5.7833,-43.25,22.69,97,87,1.36,BR,1712031824
559,riohacha,11.5444,-72.9072,26.21,75,35,5.65,CO,1712031825
560,guerrero negro,27.9769,-114.0611,15.74,69,0,5.69,MX,1712031825
561,camocim,-2.9022,-40.8411,25.47,89,98,1.99,BR,1712031826
562,kemi,65.8596,24.8228,-12.13,72,0,5.66,FI,1712031827
563,bang saphan,11.2126,99.5117,35.73,33,0,2.2,TH,1712031827
564,pierre,44.3683,-100.351,-1.49,93,75,3.13,US,1712031588
565,hadyach,50.3711,33.991,11.27,77,98,4.04,UA,1712031828
566,caleta de carquin,-11.0925,-77.6267,21.55,86,89,3.27,PE,1712031829
567,franklin,39.9667,-83.0166,14.34,93,100,3.09,US,1712031116
